{"type": "FeatureCollection", "features": [{"type": "Feature", "properties": {"origin_lat": 32.411, "origin_lon": -99.682, "cancelled_sum": 22, "origin_airport": "ABI"}, "geometry": {"type": "Point", "coordinates": [-99.682, 32.411]}}, {"type": "Feature", "properties": {"origin_lat": 35.04, "origin_lon": -106.609, "cancelled_sum": 108, "origin_airport": "ABQ"}, "geometry": {"type": "Point", "coordinates": [-106.609, 35.04]}}, {"type": "Feature", "properties": {"origin_lat": 41.253, "origin_lon": -70.06, "cancelled_sum": 39, "origin_airport": "ACK"}, "geometry": {"type": "Point", "coordinates": [-70.06, 41.253]}}, {"type": "Feature", "properties": {"origin_lat": 31.611, "origin_lon": -97.23, "cancelled_sum": 33, "origin_airport": "ACT"}, "geometry": {"type": "Point", "coordinates": [-97.23, 31.611]}}, {"type": "Feature", "properties": {"origin_lat": 39.458, "origin_lon": -74.577, "cancelled_sum": 22, "origin_airport": "ACY"}, "geometry": {"type": "Point", "coordinates": [-74.577, 39.458]}}, {"type": "Feature", "properties": {"origin_lat": 51.878, "origin_lon": -176.646, "cancelled_sum": 3, "origin_airport": "ADK"}, "geometry": {"type": "Point", "coordinates": [-176.646, 51.878]}}, {"type": "Feature", "properties": {"origin_lat": 57.75, "origin_lon": -152.494, "cancelled_sum": 23, "origin_airport": "ADQ"}, "geometry": {"type": "Point", "coordinates": [-152.494, 57.75]}}, {"type": "Feature", "properties": {"origin_lat": 31.327, "origin_lon": -92.548, "cancelled_sum": 27, "origin_airport": "AEX"}, "geometry": {"type": "Point", "coordinates": [-92.548, 31.327]}}, {"type": "Feature", "properties": {"origin_lat": 33.37, "origin_lon": -81.964, "cancelled_sum": 28, "origin_airport": "AGS"}, "geometry": {"type": "Point", "coordinates": [-81.964, 33.37]}}, {"type": "Feature", "properties": {"origin_lat": 58.677, "origin_lon": -156.649, "cancelled_sum": 0, "origin_airport": "AKN"}, "geometry": {"type": "Point", "coordinates": [-156.649, 58.677]}}, {"type": "Feature", "properties": {"origin_lat": 42.748, "origin_lon": -73.803, "cancelled_sum": 135, "origin_airport": "ALB"}, "geometry": {"type": "Point", "coordinates": [-73.803, 42.748]}}, {"type": "Feature", "properties": {"origin_lat": 35.219, "origin_lon": -101.706, "cancelled_sum": 75, "origin_airport": "AMA"}, "geometry": {"type": "Point", "coordinates": [-101.706, 35.219]}}, {"type": "Feature", "properties": {"origin_lat": 61.174, "origin_lon": -149.996, "cancelled_sum": 69, "origin_airport": "ANC"}, "geometry": {"type": "Point", "coordinates": [-149.996, 61.174]}}, {"type": "Feature", "properties": {"origin_lat": 43.992, "origin_lon": -76.022, "cancelled_sum": 9, "origin_airport": "ART"}, "geometry": {"type": "Point", "coordinates": [-76.022, 43.992]}}, {"type": "Feature", "properties": {"origin_lat": 33.64, "origin_lon": -84.427, "cancelled_sum": 721, "origin_airport": "ATL"}, "geometry": {"type": "Point", "coordinates": [-84.427, 33.64]}}, {"type": "Feature", "properties": {"origin_lat": 30.194, "origin_lon": -97.67, "cancelled_sum": 311, "origin_airport": "AUS"}, "geometry": {"type": "Point", "coordinates": [-97.67, 30.194]}}, {"type": "Feature", "properties": {"origin_lat": 41.939, "origin_lon": -72.683, "cancelled_sum": 135, "origin_airport": "BDL"}, "geometry": {"type": "Point", "coordinates": [-72.683, 41.939]}}, {"type": "Feature", "properties": {"origin_lat": 60.78, "origin_lon": -161.838, "cancelled_sum": 8, "origin_airport": "BET"}, "geometry": {"type": "Point", "coordinates": [-161.838, 60.78]}}, {"type": "Feature", "properties": {"origin_lat": 35.433, "origin_lon": -119.057, "cancelled_sum": 13, "origin_airport": "BFL"}, "geometry": {"type": "Point", "coordinates": [-119.057, 35.433]}}, {"type": "Feature", "properties": {"origin_lat": 30.626, "origin_lon": -88.068, "cancelled_sum": 4, "origin_airport": "BFM"}, "geometry": {"type": "Point", "coordinates": [-88.068, 30.626]}}, {"type": "Feature", "properties": {"origin_lat": 44.807, "origin_lon": -68.828, "cancelled_sum": 52, "origin_airport": "BGR"}, "geometry": {"type": "Point", "coordinates": [-68.828, 44.807]}}, {"type": "Feature", "properties": {"origin_lat": 33.563, "origin_lon": -86.753, "cancelled_sum": 137, "origin_airport": "BHM"}, "geometry": {"type": "Point", "coordinates": [-86.753, 33.563]}}, {"type": "Feature", "properties": {"origin_lat": 48.792, "origin_lon": -122.537, "cancelled_sum": 3, "origin_airport": "BLI"}, "geometry": {"type": "Point", "coordinates": [-122.537, 48.792]}}, {"type": "Feature", "properties": {"origin_lat": 38.545, "origin_lon": -89.835, "cancelled_sum": 4, "origin_airport": "BLV"}, "geometry": {"type": "Point", "coordinates": [-89.835, 38.545]}}, {"type": "Feature", "properties": {"origin_lat": 36.124, "origin_lon": -86.678, "cancelled_sum": 313, "origin_airport": "BNA"}, "geometry": {"type": "Point", "coordinates": [-86.678, 36.124]}}, {"type": "Feature", "properties": {"origin_lat": 43.564, "origin_lon": -116.223, "cancelled_sum": 35, "origin_airport": "BOI"}, "geometry": {"type": "Point", "coordinates": [-116.223, 43.564]}}, {"type": "Feature", "properties": {"origin_lat": 42.364, "origin_lon": -71.005, "cancelled_sum": 658, "origin_airport": "BOS"}, "geometry": {"type": "Point", "coordinates": [-71.005, 42.364]}}, {"type": "Feature", "properties": {"origin_lat": 29.951, "origin_lon": -94.021, "cancelled_sum": 23, "origin_airport": "BPT"}, "geometry": {"type": "Point", "coordinates": [-94.021, 29.951]}}, {"type": "Feature", "properties": {"origin_lat": 18.495, "origin_lon": -67.129, "cancelled_sum": 12, "origin_airport": "BQN"}, "geometry": {"type": "Point", "coordinates": [-67.129, 18.495]}}, {"type": "Feature", "properties": {"origin_lat": 25.907, "origin_lon": -97.426, "cancelled_sum": 22, "origin_airport": "BRO"}, "geometry": {"type": "Point", "coordinates": [-97.426, 25.907]}}, {"type": "Feature", "properties": {"origin_lat": 71.285, "origin_lon": -156.766, "cancelled_sum": 10, "origin_airport": "BRW"}, "geometry": {"type": "Point", "coordinates": [-156.766, 71.285]}}, {"type": "Feature", "properties": {"origin_lat": 30.533, "origin_lon": -91.149, "cancelled_sum": 79, "origin_airport": "BTR"}, "geometry": {"type": "Point", "coordinates": [-91.149, 30.533]}}, {"type": "Feature", "properties": {"origin_lat": 44.472, "origin_lon": -73.153, "cancelled_sum": 49, "origin_airport": "BTV"}, "geometry": {"type": "Point", "coordinates": [-73.153, 44.472]}}, {"type": "Feature", "properties": {"origin_lat": 42.94, "origin_lon": -78.732, "cancelled_sum": 162, "origin_airport": "BUF"}, "geometry": {"type": "Point", "coordinates": [-78.732, 42.94]}}, {"type": "Feature", "properties": {"origin_lat": 34.201, "origin_lon": -118.359, "cancelled_sum": 74, "origin_airport": "BUR"}, "geometry": {"type": "Point", "coordinates": [-118.359, 34.201]}}, {"type": "Feature", "properties": {"origin_lat": 39.175, "origin_lon": -76.668, "cancelled_sum": 547, "origin_airport": "BWI"}, "geometry": {"type": "Point", "coordinates": [-76.668, 39.175]}}, {"type": "Feature", "properties": {"origin_lat": 33.939, "origin_lon": -81.119, "cancelled_sum": 63, "origin_airport": "CAE"}, "geometry": {"type": "Point", "coordinates": [-81.119, 33.939]}}, {"type": "Feature", "properties": {"origin_lat": 37.701, "origin_lon": -113.099, "cancelled_sum": 0, "origin_airport": "CDC"}, "geometry": {"type": "Point", "coordinates": [-113.099, 37.701]}}, {"type": "Feature", "properties": {"origin_lat": 60.492, "origin_lon": -145.477, "cancelled_sum": 0, "origin_airport": "CDV"}, "geometry": {"type": "Point", "coordinates": [-145.477, 60.492]}}, {"type": "Feature", "properties": {"origin_lat": 35.035, "origin_lon": -85.204, "cancelled_sum": 46, "origin_airport": "CHA"}, "geometry": {"type": "Point", "coordinates": [-85.204, 35.035]}}, {"type": "Feature", "properties": {"origin_lat": 32.899, "origin_lon": -80.04, "cancelled_sum": 300, "origin_airport": "CHS"}, "geometry": {"type": "Point", "coordinates": [-80.04, 32.899]}}, {"type": "Feature", "properties": {"origin_lat": 41.412, "origin_lon": -81.85, "cancelled_sum": 247, "origin_airport": "CLE"}, "geometry": {"type": "Point", "coordinates": [-81.85, 41.412]}}, {"type": "Feature", "properties": {"origin_lat": 30.588, "origin_lon": -96.364, "cancelled_sum": 29, "origin_airport": "CLL"}, "geometry": {"type": "Point", "coordinates": [-96.364, 30.588]}}, {"type": "Feature", "properties": {"origin_lat": 35.214, "origin_lon": -80.943, "cancelled_sum": 1575, "origin_airport": "CLT"}, "geometry": {"type": "Point", "coordinates": [-80.943, 35.214]}}, {"type": "Feature", "properties": {"origin_lat": 39.998, "origin_lon": -82.892, "cancelled_sum": 203, "origin_airport": "CMH"}, "geometry": {"type": "Point", "coordinates": [-82.892, 39.998]}}, {"type": "Feature", "properties": {"origin_lat": 38.806, "origin_lon": -104.7, "cancelled_sum": 85, "origin_airport": "COS"}, "geometry": {"type": "Point", "coordinates": [-104.7, 38.806]}}, {"type": "Feature", "properties": {"origin_lat": 38.818, "origin_lon": -92.219, "cancelled_sum": 45, "origin_airport": "COU"}, "geometry": {"type": "Point", "coordinates": [-92.219, 38.818]}}, {"type": "Feature", "properties": {"origin_lat": 42.908, "origin_lon": -106.464, "cancelled_sum": 20, "origin_airport": "CPR"}, "geometry": {"type": "Point", "coordinates": [-106.464, 42.908]}}, {"type": "Feature", "properties": {"origin_lat": 27.77, "origin_lon": -97.501, "cancelled_sum": 53, "origin_airport": "CRP"}, "geometry": {"type": "Point", "coordinates": [-97.501, 27.77]}}, {"type": "Feature", "properties": {"origin_lat": 39.046, "origin_lon": -84.662, "cancelled_sum": 188, "origin_airport": "CVG"}, "geometry": {"type": "Point", "coordinates": [-84.662, 39.046]}}, {"type": "Feature", "properties": {"origin_lat": 41.156, "origin_lon": -104.812, "cancelled_sum": 23, "origin_airport": "CYS"}, "geometry": {"type": "Point", "coordinates": [-104.812, 41.156]}}, {"type": "Feature", "properties": {"origin_lat": 32.847, "origin_lon": -96.852, "cancelled_sum": 635, "origin_airport": "DAL"}, "geometry": {"type": "Point", "coordinates": [-96.852, 32.847]}}, {"type": "Feature", "properties": {"origin_lat": 39.902, "origin_lon": -84.219, "cancelled_sum": 73, "origin_airport": "DAY"}, "geometry": {"type": "Point", "coordinates": [-84.219, 39.902]}}, {"type": "Feature", "properties": {"origin_lat": 38.852, "origin_lon": -77.037, "cancelled_sum": 887, "origin_airport": "DCA"}, "geometry": {"type": "Point", "coordinates": [-77.037, 38.852]}}, {"type": "Feature", "properties": {"origin_lat": 39.858, "origin_lon": -104.667, "cancelled_sum": 2004, "origin_airport": "DEN"}, "geometry": {"type": "Point", "coordinates": [-104.667, 39.858]}}, {"type": "Feature", "properties": {"origin_lat": 32.896, "origin_lon": -97.037, "cancelled_sum": 3700, "origin_airport": "DFW"}, "geometry": {"type": "Point", "coordinates": [-97.037, 32.896]}}, {"type": "Feature", "properties": {"origin_lat": 31.321, "origin_lon": -85.449, "cancelled_sum": 1, "origin_airport": "DHN"}, "geometry": {"type": "Point", "coordinates": [-85.449, 31.321]}}, {"type": "Feature", "properties": {"origin_lat": 59.045, "origin_lon": -158.503, "cancelled_sum": 0, "origin_airport": "DLG"}, "geometry": {"type": "Point", "coordinates": [-158.503, 59.045]}}, {"type": "Feature", "properties": {"origin_lat": 46.842, "origin_lon": -92.194, "cancelled_sum": 73, "origin_airport": "DLH"}, "geometry": {"type": "Point", "coordinates": [-92.194, 46.842]}}, {"type": "Feature", "properties": {"origin_lat": 37.151, "origin_lon": -107.754, "cancelled_sum": 48, "origin_airport": "DRO"}, "geometry": {"type": "Point", "coordinates": [-107.754, 37.151]}}, {"type": "Feature", "properties": {"origin_lat": 29.373, "origin_lon": -100.926, "cancelled_sum": 7, "origin_airport": "DRT"}, "geometry": {"type": "Point", "coordinates": [-100.926, 29.373]}}, {"type": "Feature", "properties": {"origin_lat": 41.534, "origin_lon": -93.663, "cancelled_sum": 91, "origin_airport": "DSM"}, "geometry": {"type": "Point", "coordinates": [-93.663, 41.534]}}, {"type": "Feature", "properties": {"origin_lat": 42.212, "origin_lon": -83.353, "cancelled_sum": 505, "origin_airport": "DTW"}, "geometry": {"type": "Point", "coordinates": [-83.353, 42.212]}}, {"type": "Feature", "properties": {"origin_lat": 53.9, "origin_lon": -166.543, "cancelled_sum": 44, "origin_airport": "DUT"}, "geometry": {"type": "Point", "coordinates": [-166.543, 53.9]}}, {"type": "Feature", "properties": {"origin_lat": 31.807, "origin_lon": -106.378, "cancelled_sum": 89, "origin_airport": "ELP"}, "geometry": {"type": "Point", "coordinates": [-106.378, 31.807]}}, {"type": "Feature", "properties": {"origin_lat": 35.073, "origin_lon": -77.043, "cancelled_sum": 30, "origin_airport": "EWN"}, "geometry": {"type": "Point", "coordinates": [-77.043, 35.073]}}, {"type": "Feature", "properties": {"origin_lat": 40.692, "origin_lon": -74.169, "cancelled_sum": 1581, "origin_airport": "EWR"}, "geometry": {"type": "Point", "coordinates": [-74.169, 40.692]}}, {"type": "Feature", "properties": {"origin_lat": 24.556, "origin_lon": -81.759, "cancelled_sum": 6, "origin_airport": "EYW"}, "geometry": {"type": "Point", "coordinates": [-81.759, 24.556]}}, {"type": "Feature", "properties": {"origin_lat": 64.815, "origin_lon": -147.856, "cancelled_sum": 0, "origin_airport": "FAI"}, "geometry": {"type": "Point", "coordinates": [-147.856, 64.815]}}, {"type": "Feature", "properties": {"origin_lat": 36.776, "origin_lon": -119.718, "cancelled_sum": 50, "origin_airport": "FAT"}, "geometry": {"type": "Point", "coordinates": [-119.718, 36.776]}}, {"type": "Feature", "properties": {"origin_lat": 26.072, "origin_lon": -80.153, "cancelled_sum": 521, "origin_airport": "FLL"}, "geometry": {"type": "Point", "coordinates": [-80.153, 26.072]}}, {"type": "Feature", "properties": {"origin_lat": 34.185, "origin_lon": -79.724, "cancelled_sum": 27, "origin_airport": "FLO"}, "geometry": {"type": "Point", "coordinates": [-79.724, 34.185]}}, {"type": "Feature", "properties": {"origin_lat": 35.336, "origin_lon": -94.367, "cancelled_sum": 16, "origin_airport": "FSM"}, "geometry": {"type": "Point", "coordinates": [-94.367, 35.336]}}, {"type": "Feature", "properties": {"origin_lat": 37.927, "origin_lon": -100.724, "cancelled_sum": 12, "origin_airport": "GCK"}, "geometry": {"type": "Point", "coordinates": [-100.724, 37.927]}}, {"type": "Feature", "properties": {"origin_lat": 47.62, "origin_lon": -117.534, "cancelled_sum": 24, "origin_airport": "GEG"}, "geometry": {"type": "Point", "coordinates": [-117.534, 47.62]}}, {"type": "Feature", "properties": {"origin_lat": 47.949, "origin_lon": -97.176, "cancelled_sum": 14, "origin_airport": "GFK"}, "geometry": {"type": "Point", "coordinates": [-97.176, 47.949]}}, {"type": "Feature", "properties": {"origin_lat": 32.385, "origin_lon": -94.711, "cancelled_sum": 14, "origin_airport": "GGG"}, "geometry": {"type": "Point", "coordinates": [-94.711, 32.385]}}, {"type": "Feature", "properties": {"origin_lat": 29.69, "origin_lon": -82.272, "cancelled_sum": 18, "origin_airport": "GNV"}, "geometry": {"type": "Point", "coordinates": [-82.272, 29.69]}}, {"type": "Feature", "properties": {"origin_lat": 44.485, "origin_lon": -88.129, "cancelled_sum": 54, "origin_airport": "GRB"}, "geometry": {"type": "Point", "coordinates": [-88.129, 44.485]}}, {"type": "Feature", "properties": {"origin_lat": 31.067, "origin_lon": -97.829, "cancelled_sum": 40, "origin_airport": "GRK"}, "geometry": {"type": "Point", "coordinates": [-97.829, 31.067]}}, {"type": "Feature", "properties": {"origin_lat": 42.881, "origin_lon": -85.523, "cancelled_sum": 141, "origin_airport": "GRR"}, "geometry": {"type": "Point", "coordinates": [-85.523, 42.881]}}, {"type": "Feature", "properties": {"origin_lat": 47.482, "origin_lon": -111.371, "cancelled_sum": 18, "origin_airport": "GTF"}, "geometry": {"type": "Point", "coordinates": [-111.371, 47.482]}}, {"type": "Feature", "properties": {"origin_lat": 13.484, "origin_lon": 144.797, "cancelled_sum": 1, "origin_airport": "GUM"}, "geometry": {"type": "Point", "coordinates": [144.797, 13.484]}}, {"type": "Feature", "properties": {"origin_lat": 47.386, "origin_lon": -92.839, "cancelled_sum": 2, "origin_airport": "HIB"}, "geometry": {"type": "Point", "coordinates": [-92.839, 47.386]}}, {"type": "Feature", "properties": {"origin_lat": 46.607, "origin_lon": -111.983, "cancelled_sum": 6, "origin_airport": "HLN"}, "geometry": {"type": "Point", "coordinates": [-111.983, 46.607]}}, {"type": "Feature", "properties": {"origin_lat": 21.316, "origin_lon": -157.927, "cancelled_sum": 16, "origin_airport": "HNL"}, "geometry": {"type": "Point", "coordinates": [-157.927, 21.316]}}, {"type": "Feature", "properties": {"origin_lat": 32.688, "origin_lon": -103.217, "cancelled_sum": 7, "origin_airport": "HOB"}, "geometry": {"type": "Point", "coordinates": [-103.217, 32.688]}}, {"type": "Feature", "properties": {"origin_lat": 29.645, "origin_lon": -95.279, "cancelled_sum": 418, "origin_airport": "HOU"}, "geometry": {"type": "Point", "coordinates": [-95.279, 29.645]}}, {"type": "Feature", "properties": {"origin_lat": 41.067, "origin_lon": -73.707, "cancelled_sum": 121, "origin_airport": "HPN"}, "geometry": {"type": "Point", "coordinates": [-73.707, 41.067]}}, {"type": "Feature", "properties": {"origin_lat": 26.228, "origin_lon": -97.654, "cancelled_sum": 43, "origin_airport": "HRL"}, "geometry": {"type": "Point", "coordinates": [-97.654, 26.228]}}, {"type": "Feature", "properties": {"origin_lat": 38.944, "origin_lon": -77.456, "cancelled_sum": 385, "origin_airport": "IAD"}, "geometry": {"type": "Point", "coordinates": [-77.456, 38.944]}}, {"type": "Feature", "properties": {"origin_lat": 43.107, "origin_lon": -78.946, "cancelled_sum": 5, "origin_airport": "IAG"}, "geometry": {"type": "Point", "coordinates": [-78.946, 43.107]}}, {"type": "Feature", "properties": {"origin_lat": 29.98, "origin_lon": -95.34, "cancelled_sum": 1180, "origin_airport": "IAH"}, "geometry": {"type": "Point", "coordinates": [-95.34, 29.98]}}, {"type": "Feature", "properties": {"origin_lat": 37.65, "origin_lon": -97.433, "cancelled_sum": 104, "origin_airport": "ICT"}, "geometry": {"type": "Point", "coordinates": [-97.433, 37.65]}}, {"type": "Feature", "properties": {"origin_lat": 34.271, "origin_lon": -77.903, "cancelled_sum": 87, "origin_airport": "ILM"}, "geometry": {"type": "Point", "coordinates": [-77.903, 34.271]}}, {"type": "Feature", "properties": {"origin_lat": 39.717, "origin_lon": -86.294, "cancelled_sum": 201, "origin_airport": "IND"}, "geometry": {"type": "Point", "coordinates": [-86.294, 39.717]}}, {"type": "Feature", "properties": {"origin_lat": 48.566, "origin_lon": -93.403, "cancelled_sum": 3, "origin_airport": "INL"}, "geometry": {"type": "Point", "coordinates": [-93.403, 48.566]}}, {"type": "Feature", "properties": {"origin_lat": 41.242, "origin_lon": -76.921, "cancelled_sum": 33, "origin_airport": "IPT"}, "geometry": {"type": "Point", "coordinates": [-76.921, 41.242]}}, {"type": "Feature", "properties": {"origin_lat": 48.178, "origin_lon": -103.642, "cancelled_sum": 3, "origin_airport": "ISN"}, "geometry": {"type": "Point", "coordinates": [-103.642, 48.178]}}, {"type": "Feature", "properties": {"origin_lat": 40.795, "origin_lon": -73.1, "cancelled_sum": 49, "origin_airport": "ISP"}, "geometry": {"type": "Point", "coordinates": [-73.1, 40.795]}}, {"type": "Feature", "properties": {"origin_lat": 19.72, "origin_lon": -155.049, "cancelled_sum": 0, "origin_airport": "ITO"}, "geometry": {"type": "Point", "coordinates": [-155.049, 19.72]}}, {"type": "Feature", "properties": {"origin_lat": 32.311, "origin_lon": -90.076, "cancelled_sum": 61, "origin_airport": "JAN"}, "geometry": {"type": "Point", "coordinates": [-90.076, 32.311]}}, {"type": "Feature", "properties": {"origin_lat": 30.494, "origin_lon": -81.688, "cancelled_sum": 263, "origin_airport": "JAX"}, "geometry": {"type": "Point", "coordinates": [-81.688, 30.494]}}, {"type": "Feature", "properties": {"origin_lat": 40.64, "origin_lon": -73.779, "cancelled_sum": 361, "origin_airport": "JFK"}, "geometry": {"type": "Point", "coordinates": [-73.779, 40.64]}}, {"type": "Feature", "properties": {"origin_lat": 20.963, "origin_lon": -156.674, "cancelled_sum": 14, "origin_airport": "JHM"}, "geometry": {"type": "Point", "coordinates": [-156.674, 20.963]}}, {"type": "Feature", "properties": {"origin_lat": 58.355, "origin_lon": -134.576, "cancelled_sum": 15, "origin_airport": "JNU"}, "geometry": {"type": "Point", "coordinates": [-134.576, 58.355]}}, {"type": "Feature", "properties": {"origin_lat": 19.739, "origin_lon": -156.046, "cancelled_sum": 1, "origin_airport": "KOA"}, "geometry": {"type": "Point", "coordinates": [-156.046, 19.739]}}, {"type": "Feature", "properties": {"origin_lat": 55.356, "origin_lon": -131.714, "cancelled_sum": 9, "origin_airport": "KTN"}, "geometry": {"type": "Point", "coordinates": [-131.714, 55.356]}}, {"type": "Feature", "properties": {"origin_lat": 42.779, "origin_lon": -84.587, "cancelled_sum": 22, "origin_airport": "LAN"}, "geometry": {"type": "Point", "coordinates": [-84.587, 42.779]}}, {"type": "Feature", "properties": {"origin_lat": 36.08, "origin_lon": -115.152, "cancelled_sum": 303, "origin_airport": "LAS"}, "geometry": {"type": "Point", "coordinates": [-115.152, 36.08]}}, {"type": "Feature", "properties": {"origin_lat": 33.942, "origin_lon": -118.408, "cancelled_sum": 434, "origin_airport": "LAX"}, "geometry": {"type": "Point", "coordinates": [-118.408, 33.942]}}, {"type": "Feature", "properties": {"origin_lat": 33.664, "origin_lon": -101.823, "cancelled_sum": 97, "origin_airport": "LBB"}, "geometry": {"type": "Point", "coordinates": [-101.823, 33.664]}}, {"type": "Feature", "properties": {"origin_lat": 30.126, "origin_lon": -93.223, "cancelled_sum": 21, "origin_airport": "LCH"}, "geometry": {"type": "Point", "coordinates": [-93.223, 30.126]}}, {"type": "Feature", "properties": {"origin_lat": 39.814, "origin_lon": -82.928, "cancelled_sum": 5, "origin_airport": "LCK"}, "geometry": {"type": "Point", "coordinates": [-82.928, 39.814]}}, {"type": "Feature", "properties": {"origin_lat": 30.205, "origin_lon": -91.987, "cancelled_sum": 59, "origin_airport": "LFT"}, "geometry": {"type": "Point", "coordinates": [-91.987, 30.205]}}, {"type": "Feature", "properties": {"origin_lat": 40.777, "origin_lon": -73.872, "cancelled_sum": 1165, "origin_airport": "LGA"}, "geometry": {"type": "Point", "coordinates": [-73.872, 40.777]}}, {"type": "Feature", "properties": {"origin_lat": 33.818, "origin_lon": -118.151, "cancelled_sum": 8, "origin_airport": "LGB"}, "geometry": {"type": "Point", "coordinates": [-118.151, 33.818]}}, {"type": "Feature", "properties": {"origin_lat": 21.976, "origin_lon": -159.339, "cancelled_sum": 2, "origin_airport": "LIH"}, "geometry": {"type": "Point", "coordinates": [-159.339, 21.976]}}, {"type": "Feature", "properties": {"origin_lat": 34.729, "origin_lon": -92.224, "cancelled_sum": 80, "origin_airport": "LIT"}, "geometry": {"type": "Point", "coordinates": [-92.224, 34.729]}}, {"type": "Feature", "properties": {"origin_lat": 40.851, "origin_lon": -96.759, "cancelled_sum": 19, "origin_airport": "LNK"}, "geometry": {"type": "Point", "coordinates": [-96.759, 40.851]}}, {"type": "Feature", "properties": {"origin_lat": 20.786, "origin_lon": -156.951, "cancelled_sum": 2, "origin_airport": "LNY"}, "geometry": {"type": "Point", "coordinates": [-156.951, 20.786]}}, {"type": "Feature", "properties": {"origin_lat": 27.544, "origin_lon": -99.461, "cancelled_sum": 22, "origin_airport": "LRD"}, "geometry": {"type": "Point", "coordinates": [-99.461, 27.544]}}, {"type": "Feature", "properties": {"origin_lat": 31.942, "origin_lon": -102.202, "cancelled_sum": 91, "origin_airport": "MAF"}, "geometry": {"type": "Point", "coordinates": [-102.202, 31.942]}}, {"type": "Feature", "properties": {"origin_lat": 39.297, "origin_lon": -94.714, "cancelled_sum": 303, "origin_airport": "MCI"}, "geometry": {"type": "Point", "coordinates": [-94.714, 39.297]}}, {"type": "Feature", "properties": {"origin_lat": 28.429, "origin_lon": -81.316, "cancelled_sum": 1121, "origin_airport": "MCO"}, "geometry": {"type": "Point", "coordinates": [-81.316, 28.429]}}, {"type": "Feature", "properties": {"origin_lat": 40.193, "origin_lon": -76.763, "cancelled_sum": 52, "origin_airport": "MDT"}, "geometry": {"type": "Point", "coordinates": [-76.763, 40.193]}}, {"type": "Feature", "properties": {"origin_lat": 41.786, "origin_lon": -87.752, "cancelled_sum": 767, "origin_airport": "MDW"}, "geometry": {"type": "Point", "coordinates": [-87.752, 41.786]}}, {"type": "Feature", "properties": {"origin_lat": 35.042, "origin_lon": -89.977, "cancelled_sum": 154, "origin_airport": "MEM"}, "geometry": {"type": "Point", "coordinates": [-89.977, 35.042]}}, {"type": "Feature", "properties": {"origin_lat": 26.176, "origin_lon": -98.239, "cancelled_sum": 45, "origin_airport": "MFE"}, "geometry": {"type": "Point", "coordinates": [-98.239, 26.176]}}, {"type": "Feature", "properties": {"origin_lat": 25.793, "origin_lon": -80.291, "cancelled_sum": 391, "origin_airport": "MIA"}, "geometry": {"type": "Point", "coordinates": [-80.291, 25.793]}}, {"type": "Feature", "properties": {"origin_lat": 42.947, "origin_lon": -87.896, "cancelled_sum": 159, "origin_airport": "MKE"}, "geometry": {"type": "Point", "coordinates": [-87.896, 42.947]}}, {"type": "Feature", "properties": {"origin_lat": 21.153, "origin_lon": -157.096, "cancelled_sum": 2, "origin_airport": "MKK"}, "geometry": {"type": "Point", "coordinates": [-157.096, 21.153]}}, {"type": "Feature", "properties": {"origin_lat": 28.103, "origin_lon": -80.645, "cancelled_sum": 25, "origin_airport": "MLB"}, "geometry": {"type": "Point", "coordinates": [-80.645, 28.103]}}, {"type": "Feature", "properties": {"origin_lat": 32.511, "origin_lon": -92.037, "cancelled_sum": 27, "origin_airport": "MLU"}, "geometry": {"type": "Point", "coordinates": [-92.037, 32.511]}}, {"type": "Feature", "properties": {"origin_lat": 30.691, "origin_lon": -88.243, "cancelled_sum": 62, "origin_airport": "MOB"}, "geometry": {"type": "Point", "coordinates": [-88.243, 30.691]}}, {"type": "Feature", "properties": {"origin_lat": 48.259, "origin_lon": -101.28, "cancelled_sum": 24, "origin_airport": "MOT"}, "geometry": {"type": "Point", "coordinates": [-101.28, 48.259]}}, {"type": "Feature", "properties": {"origin_lat": 46.534, "origin_lon": -87.562, "cancelled_sum": 21, "origin_airport": "MQT"}, "geometry": {"type": "Point", "coordinates": [-87.562, 46.534]}}, {"type": "Feature", "properties": {"origin_lat": 43.14, "origin_lon": -89.337, "cancelled_sum": 98, "origin_airport": "MSN"}, "geometry": {"type": "Point", "coordinates": [-89.337, 43.14]}}, {"type": "Feature", "properties": {"origin_lat": 44.88, "origin_lon": -93.217, "cancelled_sum": 364, "origin_airport": "MSP"}, "geometry": {"type": "Point", "coordinates": [-93.217, 44.88]}}, {"type": "Feature", "properties": {"origin_lat": 29.993, "origin_lon": -90.258, "cancelled_sum": 433, "origin_airport": "MSY"}, "geometry": {"type": "Point", "coordinates": [-90.258, 29.993]}}, {"type": "Feature", "properties": {"origin_lat": 33.68, "origin_lon": -78.928, "cancelled_sum": 143, "origin_airport": "MYR"}, "geometry": {"type": "Point", "coordinates": [-78.928, 33.68]}}, {"type": "Feature", "properties": {"origin_lat": 37.721, "origin_lon": -122.221, "cancelled_sum": 52, "origin_airport": "OAK"}, "geometry": {"type": "Point", "coordinates": [-122.221, 37.721]}}, {"type": "Feature", "properties": {"origin_lat": 20.899, "origin_lon": -156.431, "cancelled_sum": 7, "origin_airport": "OGG"}, "geometry": {"type": "Point", "coordinates": [-156.431, 20.899]}}, {"type": "Feature", "properties": {"origin_lat": 44.682, "origin_lon": -75.466, "cancelled_sum": 13, "origin_airport": "OGS"}, "geometry": {"type": "Point", "coordinates": [-75.466, 44.682]}}, {"type": "Feature", "properties": {"origin_lat": 35.393, "origin_lon": -97.601, "cancelled_sum": 182, "origin_airport": "OKC"}, "geometry": {"type": "Point", "coordinates": [-97.601, 35.393]}}, {"type": "Feature", "properties": {"origin_lat": 41.302, "origin_lon": -95.894, "cancelled_sum": 130, "origin_airport": "OMA"}, "geometry": {"type": "Point", "coordinates": [-95.894, 41.302]}}, {"type": "Feature", "properties": {"origin_lat": 64.512, "origin_lon": -165.445, "cancelled_sum": 8, "origin_airport": "OME"}, "geometry": {"type": "Point", "coordinates": [-165.445, 64.512]}}, {"type": "Feature", "properties": {"origin_lat": 34.056, "origin_lon": -117.601, "cancelled_sum": 59, "origin_airport": "ONT"}, "geometry": {"type": "Point", "coordinates": [-117.601, 34.056]}}, {"type": "Feature", "properties": {"origin_lat": 41.979, "origin_lon": -87.904, "cancelled_sum": 3065, "origin_airport": "ORD"}, "geometry": {"type": "Point", "coordinates": [-87.904, 41.979]}}, {"type": "Feature", "properties": {"origin_lat": 36.894, "origin_lon": -76.201, "cancelled_sum": 228, "origin_airport": "ORF"}, "geometry": {"type": "Point", "coordinates": [-76.201, 36.894]}}, {"type": "Feature", "properties": {"origin_lat": 66.884, "origin_lon": -162.598, "cancelled_sum": 9, "origin_airport": "OTZ"}, "geometry": {"type": "Point", "coordinates": [-162.598, 66.884]}}, {"type": "Feature", "properties": {"origin_lat": 47.906, "origin_lon": -122.281, "cancelled_sum": 44, "origin_airport": "PAE"}, "geometry": {"type": "Point", "coordinates": [-122.281, 47.906]}}, {"type": "Feature", "properties": {"origin_lat": 44.651, "origin_lon": -73.468, "cancelled_sum": 6, "origin_airport": "PBG"}, "geometry": {"type": "Point", "coordinates": [-73.468, 44.651]}}, {"type": "Feature", "properties": {"origin_lat": 26.683, "origin_lon": -80.096, "cancelled_sum": 175, "origin_airport": "PBI"}, "geometry": {"type": "Point", "coordinates": [-80.096, 26.683]}}, {"type": "Feature", "properties": {"origin_lat": 45.589, "origin_lon": -122.597, "cancelled_sum": 111, "origin_airport": "PDX"}, "geometry": {"type": "Point", "coordinates": [-122.597, 45.589]}}, {"type": "Feature", "properties": {"origin_lat": 37.132, "origin_lon": -76.493, "cancelled_sum": 38, "origin_airport": "PHF"}, "geometry": {"type": "Point", "coordinates": [-76.493, 37.132]}}, {"type": "Feature", "properties": {"origin_lat": 39.872, "origin_lon": -75.241, "cancelled_sum": 1150, "origin_airport": "PHL"}, "geometry": {"type": "Point", "coordinates": [-75.241, 39.872]}}, {"type": "Feature", "properties": {"origin_lat": 33.434, "origin_lon": -112.008, "cancelled_sum": 369, "origin_airport": "PHX"}, "geometry": {"type": "Point", "coordinates": [-112.008, 33.434]}}, {"type": "Feature", "properties": {"origin_lat": 27.911, "origin_lon": -82.687, "cancelled_sum": 11, "origin_airport": "PIE"}, "geometry": {"type": "Point", "coordinates": [-82.687, 27.911]}}, {"type": "Feature", "properties": {"origin_lat": 40.491, "origin_lon": -80.233, "cancelled_sum": 228, "origin_airport": "PIT"}, "geometry": {"type": "Point", "coordinates": [-80.233, 40.491]}}, {"type": "Feature", "properties": {"origin_lat": 30.473, "origin_lon": -87.187, "cancelled_sum": 72, "origin_airport": "PNS"}, "geometry": {"type": "Point", "coordinates": [-87.187, 30.473]}}, {"type": "Feature", "properties": {"origin_lat": -14.331, "origin_lon": -170.71, "cancelled_sum": 0, "origin_airport": "PPG"}, "geometry": {"type": "Point", "coordinates": [-170.71, -14.331]}}, {"type": "Feature", "properties": {"origin_lat": 46.689, "origin_lon": -68.045, "cancelled_sum": 13, "origin_airport": "PQI"}, "geometry": {"type": "Point", "coordinates": [-68.045, 46.689]}}, {"type": "Feature", "properties": {"origin_lat": 34.654, "origin_lon": -112.419, "cancelled_sum": 4, "origin_airport": "PRC"}, "geometry": {"type": "Point", "coordinates": [-112.419, 34.654]}}, {"type": "Feature", "properties": {"origin_lat": 18.008, "origin_lon": -66.563, "cancelled_sum": 4, "origin_airport": "PSE"}, "geometry": {"type": "Point", "coordinates": [-66.563, 18.008]}}, {"type": "Feature", "properties": {"origin_lat": 33.829, "origin_lon": -116.507, "cancelled_sum": 47, "origin_airport": "PSP"}, "geometry": {"type": "Point", "coordinates": [-116.507, 33.829]}}, {"type": "Feature", "properties": {"origin_lat": 38.289, "origin_lon": -104.496, "cancelled_sum": 15, "origin_airport": "PUB"}, "geometry": {"type": "Point", "coordinates": [-104.496, 38.289]}}, {"type": "Feature", "properties": {"origin_lat": 41.724, "origin_lon": -71.428, "cancelled_sum": 108, "origin_airport": "PVD"}, "geometry": {"type": "Point", "coordinates": [-71.428, 41.724]}}, {"type": "Feature", "properties": {"origin_lat": 43.646, "origin_lon": -70.309, "cancelled_sum": 92, "origin_airport": "PWM"}, "geometry": {"type": "Point", "coordinates": [-70.309, 43.646]}}, {"type": "Feature", "properties": {"origin_lat": 35.877, "origin_lon": -78.787, "cancelled_sum": 304, "origin_airport": "RDU"}, "geometry": {"type": "Point", "coordinates": [-78.787, 35.877]}}, {"type": "Feature", "properties": {"origin_lat": 37.505, "origin_lon": -77.319, "cancelled_sum": 155, "origin_airport": "RIC"}, "geometry": {"type": "Point", "coordinates": [-77.319, 37.505]}}, {"type": "Feature", "properties": {"origin_lat": 39.498, "origin_lon": -119.768, "cancelled_sum": 60, "origin_airport": "RNO"}, "geometry": {"type": "Point", "coordinates": [-119.768, 39.498]}}, {"type": "Feature", "properties": {"origin_lat": 43.119, "origin_lon": -77.672, "cancelled_sum": 108, "origin_airport": "ROC"}, "geometry": {"type": "Point", "coordinates": [-77.672, 43.119]}}, {"type": "Feature", "properties": {"origin_lat": 33.301, "origin_lon": -104.531, "cancelled_sum": 14, "origin_airport": "ROW"}, "geometry": {"type": "Point", "coordinates": [-104.531, 33.301]}}, {"type": "Feature", "properties": {"origin_lat": 26.536, "origin_lon": -81.755, "cancelled_sum": 68, "origin_airport": "RSW"}, "geometry": {"type": "Point", "coordinates": [-81.755, 26.536]}}, {"type": "Feature", "properties": {"origin_lat": 35.617, "origin_lon": -106.088, "cancelled_sum": 29, "origin_airport": "SAF"}, "geometry": {"type": "Point", "coordinates": [-106.088, 35.617]}}, {"type": "Feature", "properties": {"origin_lat": 32.733, "origin_lon": -117.189, "cancelled_sum": 194, "origin_airport": "SAN"}, "geometry": {"type": "Point", "coordinates": [-117.189, 32.733]}}, {"type": "Feature", "properties": {"origin_lat": 29.534, "origin_lon": -98.47, "cancelled_sum": 203, "origin_airport": "SAT"}, "geometry": {"type": "Point", "coordinates": [-98.47, 29.534]}}, {"type": "Feature", "properties": {"origin_lat": 32.127, "origin_lon": -81.202, "cancelled_sum": 163, "origin_airport": "SAV"}, "geometry": {"type": "Point", "coordinates": [-81.202, 32.127]}}, {"type": "Feature", "properties": {"origin_lat": 38.34, "origin_lon": -75.51, "cancelled_sum": 10, "origin_airport": "SBY"}, "geometry": {"type": "Point", "coordinates": [-75.51, 38.34]}}, {"type": "Feature", "properties": {"origin_lat": 70.195, "origin_lon": -148.465, "cancelled_sum": 3, "origin_airport": "SCC"}, "geometry": {"type": "Point", "coordinates": [-148.465, 70.195]}}, {"type": "Feature", "properties": {"origin_lat": 37.894, "origin_lon": -121.239, "cancelled_sum": 2, "origin_airport": "SCK"}, "geometry": {"type": "Point", "coordinates": [-121.239, 37.894]}}, {"type": "Feature", "properties": {"origin_lat": 47.449, "origin_lon": -122.309, "cancelled_sum": 274, "origin_airport": "SEA"}, "geometry": {"type": "Point", "coordinates": [-122.309, 47.449]}}, {"type": "Feature", "properties": {"origin_lat": 37.619, "origin_lon": -122.375, "cancelled_sum": 596, "origin_airport": "SFO"}, "geometry": {"type": "Point", "coordinates": [-122.375, 37.619]}}, {"type": "Feature", "properties": {"origin_lat": 32.446, "origin_lon": -93.826, "cancelled_sum": 68, "origin_airport": "SHV"}, "geometry": {"type": "Point", "coordinates": [-93.826, 32.446]}}, {"type": "Feature", "properties": {"origin_lat": 57.047, "origin_lon": -135.361, "cancelled_sum": 4, "origin_airport": "SIT"}, "geometry": {"type": "Point", "coordinates": [-135.361, 57.047]}}, {"type": "Feature", "properties": {"origin_lat": 37.362, "origin_lon": -121.929, "cancelled_sum": 92, "origin_airport": "SJC"}, "geometry": {"type": "Point", "coordinates": [-121.929, 37.362]}}, {"type": "Feature", "properties": {"origin_lat": 31.358, "origin_lon": -100.496, "cancelled_sum": 16, "origin_airport": "SJT"}, "geometry": {"type": "Point", "coordinates": [-100.496, 31.358]}}, {"type": "Feature", "properties": {"origin_lat": 18.439, "origin_lon": -66.002, "cancelled_sum": 102, "origin_airport": "SJU"}, "geometry": {"type": "Point", "coordinates": [-66.002, 18.439]}}, {"type": "Feature", "properties": {"origin_lat": 40.788, "origin_lon": -111.978, "cancelled_sum": 163, "origin_airport": "SLC"}, "geometry": {"type": "Point", "coordinates": [-111.978, 40.788]}}, {"type": "Feature", "properties": {"origin_lat": 38.695, "origin_lon": -121.591, "cancelled_sum": 100, "origin_airport": "SMF"}, "geometry": {"type": "Point", "coordinates": [-121.591, 38.695]}}, {"type": "Feature", "properties": {"origin_lat": 33.676, "origin_lon": -117.868, "cancelled_sum": 129, "origin_airport": "SNA"}, "geometry": {"type": "Point", "coordinates": [-117.868, 33.676]}}, {"type": "Feature", "properties": {"origin_lat": 15.119, "origin_lon": 145.729, "cancelled_sum": 1, "origin_airport": "SPN"}, "geometry": {"type": "Point", "coordinates": [145.729, 15.119]}}, {"type": "Feature", "properties": {"origin_lat": 33.989, "origin_lon": -98.492, "cancelled_sum": 29, "origin_airport": "SPS"}, "geometry": {"type": "Point", "coordinates": [-98.492, 33.989]}}, {"type": "Feature", "properties": {"origin_lat": 38.748, "origin_lon": -90.36, "cancelled_sum": 324, "origin_airport": "STL"}, "geometry": {"type": "Point", "coordinates": [-90.36, 38.748]}}, {"type": "Feature", "properties": {"origin_lat": 18.337, "origin_lon": -64.973, "cancelled_sum": 12, "origin_airport": "STT"}, "geometry": {"type": "Point", "coordinates": [-64.973, 18.337]}}, {"type": "Feature", "properties": {"origin_lat": 17.702, "origin_lon": -64.798, "cancelled_sum": 2, "origin_airport": "STX"}, "geometry": {"type": "Point", "coordinates": [-64.798, 17.702]}}, {"type": "Feature", "properties": {"origin_lat": 42.402, "origin_lon": -96.384, "cancelled_sum": 10, "origin_airport": "SUX"}, "geometry": {"type": "Point", "coordinates": [-96.384, 42.402]}}, {"type": "Feature", "properties": {"origin_lat": 41.504, "origin_lon": -74.105, "cancelled_sum": 36, "origin_airport": "SWF"}, "geometry": {"type": "Point", "coordinates": [-74.105, 41.504]}}, {"type": "Feature", "properties": {"origin_lat": 43.111, "origin_lon": -76.106, "cancelled_sum": 141, "origin_airport": "SYR"}, "geometry": {"type": "Point", "coordinates": [-76.106, 43.111]}}, {"type": "Feature", "properties": {"origin_lat": 30.396, "origin_lon": -84.35, "cancelled_sum": 46, "origin_airport": "TLH"}, "geometry": {"type": "Point", "coordinates": [-84.35, 30.396]}}, {"type": "Feature", "properties": {"origin_lat": 27.975, "origin_lon": -82.533, "cancelled_sum": 233, "origin_airport": "TPA"}, "geometry": {"type": "Point", "coordinates": [-82.533, 27.975]}}, {"type": "Feature", "properties": {"origin_lat": 40.277, "origin_lon": -74.813, "cancelled_sum": 25, "origin_airport": "TTN"}, "geometry": {"type": "Point", "coordinates": [-74.813, 40.277]}}, {"type": "Feature", "properties": {"origin_lat": 36.198, "origin_lon": -95.888, "cancelled_sum": 125, "origin_airport": "TUL"}, "geometry": {"type": "Point", "coordinates": [-95.888, 36.198]}}, {"type": "Feature", "properties": {"origin_lat": 32.116, "origin_lon": -110.941, "cancelled_sum": 77, "origin_airport": "TUS"}, "geometry": {"type": "Point", "coordinates": [-110.941, 32.116]}}, {"type": "Feature", "properties": {"origin_lat": 33.454, "origin_lon": -93.991, "cancelled_sum": 26, "origin_airport": "TXK"}, "geometry": {"type": "Point", "coordinates": [-93.991, 33.454]}}, {"type": "Feature", "properties": {"origin_lat": 32.354, "origin_lon": -95.402, "cancelled_sum": 31, "origin_airport": "TYR"}, "geometry": {"type": "Point", "coordinates": [-95.402, 32.354]}}, {"type": "Feature", "properties": {"origin_lat": 35.812, "origin_lon": -83.993, "cancelled_sum": 94, "origin_airport": "TYS"}, "geometry": {"type": "Point", "coordinates": [-83.993, 35.812]}}, {"type": "Feature", "properties": {"origin_lat": 30.483, "origin_lon": -86.525, "cancelled_sum": 51, "origin_airport": "VPS"}, "geometry": {"type": "Point", "coordinates": [-86.525, 30.483]}}, {"type": "Feature", "properties": {"origin_lat": 59.503, "origin_lon": -139.66, "cancelled_sum": 4, "origin_airport": "YAK"}, "geometry": {"type": "Point", "coordinates": [-139.66, 59.503]}}, {"type": "Feature", "properties": {"origin_lat": 32.656, "origin_lon": -114.606, "cancelled_sum": 6, "origin_airport": "YUM"}, "geometry": {"type": "Point", "coordinates": [-114.606, 32.656]}}]}